{"type":"FeatureCollection","features":[{"type":"Feature","properties":{"Date":"2023-Feb-20","Order":1,"Name":"Espresso Vivace","Type":"Coffee shop","Address":"532 Broadway E, Seattle, WA 98102","Hours":"6AM - 7PM","Website":"http://espressovivace.com/","Phone":"+12068602722","Rating (out of 5)":"4","Neighbourhood":"Capitol Hill","Notes":""},"geometry":{"coordinates":[-122.32073965075648,47.6237502571999],"type":"Point"}},{"type":"Feature","properties":{"Order":2,"Name":"Cal Anderson Park","Type":"Park","Address":"1635 11th Ave, Seattle, WA 98122","Website":"http://www.seattle.gov/parks/find/parks/cal-anderson-park","Phone":"+12066844075","Date":"2023-Feb-20","Hours":"Open 24 hours","Neighbourhood":"Capitol Hill","Notes":"This historic recreational area hosts special events & has a jogging path, ball field & wading pool."},"geometry":{"coordinates":[-122.31950060564655,47.61822398829926],"type":"Point"}},{"type":"Feature","properties":{"Date":"2023-Feb-20","Name":"Jimi Hendrix Statue","Address":"1604 Broadway, Seattle, WA 98122","Type":"Statue","Hours":"Open 24 hours","Website":"","Order":3,"Neighbourhood":"Pike/Pine","Notes":"Legendary guitar player & singer, Jimi Hendrix was born in Seattle & remembered by this statue."},"geometry":{"coordinates":[-122.32070381361251,47.61535587486222],"type":"Point"}},{"type":"Feature","properties":{"Date":"2023-Feb-20","Order":4,"Name":"The Elliott Bay Book Company","Type":"Book Store","Notes":"there is a coffee shop inside the book store, Little Odd Fellows. ","Address":"1521 10th Ave, Seattle, WA 98122","Hours":"10AM - 10PM","Website":"http://www.elliottbaybook.com/","Phone":"+12066246600","Rating (out of 5)":4,"Neighbourhood":"Pike/Pine"},"geometry":{"coordinates":[-122.31964098955356,47.614698251728925],"type":"Point"}},{"type":"Feature","properties":{"Name":"Oddfellows Café + Bar","Address":"1525 10th Ave, Seattle, WA 98122, United States","Type":"Restaurant","Website":"http://oddfellowscafe.com/","Phone":"+12063250807","Notes":"Make reservation before going! Should try \"Baked Eggs & Grilled Bread\" for brunch/","Rating (out of 5)":4,"Hours":"Mon-Fri 9AM - 9PM; Sat-Sun 8AM - 10PM","Order":5,"Date":"2023-Feb-20","Neighbourhood":"Pike/Pine"},"geometry":{"coordinates":[-122.31961459578218,47.61492679944655],"type":"Point"}},{"type":"Feature","properties":{"Order":6,"Date":"2023-Feb-20","Name":"Glossier","Address":"1514 10th Ave, Seattle, WA 98122","Phone":"+12062089694","Website":"https://glossier.com/?utm_source=google&utm_medium=Yext","Hours":"Mon-Thu 12AM - 6PM; Fri-Sun 11AM - 6PM","Type":"Beauty Cosmetics Store","Rating (out of 5)":3,"Notes":"They got tester for all products!","Neighbourhood":"Pike/Pine"},"geometry":{"coordinates":[-122.31931025350536,47.614512443423564],"type":"Point"}},{"type":"Feature","properties":{"Date":"2023-Feb-20","Order":7,"Name":"Caffé Vita","Address":"1005 E Pike St, Seattle, Washington 98122, United States","Type":"Coffee Shop","Phone":"+12067122132","Website":"http://www.caffevita.com/","Hours":"7AM - 7PM","Rating (out of 5)":"","Notes":"","Neighbourhood":"Pike/Pine"},"geometry":{"coordinates":[-122.31902583797884,47.61395621062232],"type":"Point"}},{"type":"Feature","properties":{"Order":8,"Name":"Amazon Go","Type":"Convenience Store","Address":"1122 Madison Street, Seattle, Washington 98104, United States","Phone":"+18882804331","Website":"https://amzn.to/3dOOBgH","Hours":"Mon-Fri 7AM - 8PM","Rating (out of 5)":3,"Date":"2023-Feb-20","Neighbourhood":"First Hill","Notes":""},"geometry":{"coordinates":[-122.32430222976178,47.60982977266133],"type":"Point"}},{"type":"Feature","properties":{"Order":9,"Name":"George's Delicatessen","Type":"Deli","Date":"2023-Feb-20","Address":"907 Madison St, Seattle, WA 98104","Hours":"Mon-Fri 9AM - 4PM; Sat 10AM - 3PM","Phone":"+12066221491","Neighbourhood":"First Hill"},"geometry":{"coordinates":[-122.32701391113586,47.60844638449336],"type":"Point"}},{"type":"Feature","properties":{"Date":"2023-Feb-20","Name":"Seattle Central Library","Order":10,"Type":"Library","Address":"1000 4th Ave, Seattle, Washington 98104, United States","Website":"https://www.spl.org/hours-and-locations/central-library","Phone":"+12063864636","Hours":"Mon-Sat 10AM - 6PM; Sun 12AM - 6PM","Notes":"Cool architecture building.","Rating (out of 5)":3,"Neighbourhood":"First Hill"},"geometry":{"coordinates":[-122.33269698971104,47.606402198343545],"type":"Point"}},{"type":"Feature","properties":{"Order":11,"Name":"Waterfall Garden Park","Type":"Park","Address":"219 2nd Ave S, Seattle, Washington 98104, United States","Website":"","Phone":"+13608056700","Hours":"8AM - 3:45PM","Rating (out of 5)":4,"Notes":"You can make a wish here :)","Date":"2023-Feb-20","Neighbourhood":"Pioneer Square"},"geometry":{"coordinates":[-122.33197382376196,47.60020977990115],"type":"Point"}},{"type":"Feature","properties":{"Name":"Occidental Park","Order":12,"Type":"Park","Address":"117 S Washington St, Seattle, WA 98104","Phone":"+12066844075","Website":"http://www.seattle.gov/parks/find/parks/occidental-square","Hours":"6AM - 10PM","Notes":"Urban cobblestone square features maple trees, benches, a modern pergola, statuary & art events.","Rating (out of 5)":3,"Date":"2023-Feb-20","Neighbourhood":"Pioneer Square"},"geometry":{"coordinates":[-122.33315128400397,47.6004535545062],"type":"Point"}},{"type":"Feature","properties":{"Order":13,"Date":"2023-Feb-20","Name":"Bambū Desserts & Drinks","Address":"516 7th Ave S unit A, Seattle, WA 98104","Type":"Dessert","Hours":"11:30 AM - 8:05 PM","Website":"http://www.drinkbambu.com/","Phone":"+12065380399","Rating (out of 5)":2,"Notes":"","Neighbourhood":"Chinatown-International District"},"geometry":{"coordinates":[-122.32344021462691,47.59785898674926],"type":"Point"}},{"type":"Feature","properties":{"Name":"Hing Hay Park","Type":"Park","Address":"423 Maynard Ave. S, Seattle, Washington 98104, United States","Order":14,"Date":"2023-Feb-20","Hours":"6AM - 10PM","Phone":"+12066844075","Website":"http://www.seattle.gov/parks/find/parks/hing-hay-park","Rating (out of 5)":3,"Notes":"Have outdoor pingpong table!","Neighbourhood":"Chinatown-International District"},"geometry":{"coordinates":[-122.32544166869576,47.598548668620055],"type":"Point"}},{"type":"Feature","properties":{"Order":15,"Name":"Magic Mouse Toys","Type":"Toy Store","Address":"603 1st Ave, Seattle, Washington 98104, United States","Website":"http://magicmousetoys.com/","Hours":"12PM - 5PM","Phone":"+12066828097","Rating (out of 5)":4,"Notes":"It's a two storey toy store.","Date":"2023-Feb-20","Neighbourhood":"Pioneer Square"},"geometry":{"coordinates":[-122.334381445484,47.601871861015525],"type":"Point"}},{"type":"Feature","properties":{"Order":16,"Name":"The Crab Pot Seattle","Address":"1301 Alaskan Way Pier 57, 1305 Alaskan Wy, Seattle, WA 98101","Type":"Seafood Restaurant","Date":"2023-Feb-20","Hours":"11 AM - 8:30 PM","Website":"https://www.thecrabpotseattle.com/","Phone":"+12066241890","Rating (out of 5)":3,"Notes":"Seafood restaurant, the crab is a bit too salty~","Neighbourhood":"Pike Place"},"geometry":{"coordinates":[-122.3408675866705,47.606068406167],"type":"Point"}},{"type":"Feature","properties":{"Order":17,"Date":"2023-Feb-20","Name":"M2M Mart","Type":"Grocery","Address":"120 Broadway E, Seattle, WA 98102","Hours":"9AM - 9:30PM","Website":"http://nj.hmart.com/","Notes":"It's a Korean grocery store with a bakery and b.b.q. Chicken (Korean fried chicken chain store).","Rating (out of 5)":"","Neighbourhood":"Capitol Hill"},"geometry":{"coordinates":[-122.32065049909139,47.6196598314674],"type":"Point"}},{"type":"Feature","properties":{"Date":"2023-Feb-20","Order":18,"Address":"125 Broadway E, Seattle, WA 98102","Type":"Bubble Tea Store","Name":"Dont Yell At Me","Phone":"+12063502380","Rating (out of 5)":3.5,"Website":"https://www.instagram.com/dontyellatme.usa/","Hours":"12PM - 10PM","Neighbourhood":"Capitol Hill","Notes":""},"geometry":{"coordinates":[-122.32105875362468,47.61960528883006],"type":"Point"}}]}